[
  {
    "id": 1,
    "name": "Al-Ahram Palace",
    "cuisine": "Egyptian",
    "address": "123 Nile Corniche, Cairo",
    "phone": "+20-2-1234-5678",
    "rating": 4.8,
    "price_range": "$$$",
    "hours": "12:00-23:00",
    "specialties": [
      "Koshari",
      "Ful Medames",
      "Molokhia"
    ],
    "image": "https://images.unsplash.com/photo-1517248135467-4c7edcad34c4?w=800&h=600&fit=crop"
  },
  {
    "id": 2,
    "name": "Seafood Paradise",
    "cuisine": "Seafood",
    "address": "456 Alexandria Harbor",
    "phone": "+20-3-2345-6789",
    "rating": 4.6,
    "price_range": "$$$",
    "hours": "11:00-22:00",
    "specialties": [
      "Grilled Sea Bass",
      "Shrimp Tagine",
      "Calamari"
    ],
    "image": "https://images.unsplash.com/photo-1517248135467-4c7edcad34c4?w=800&h=600&fit=crop"
  },
  {
    "id": 3,
    "name": "Pizza Palace",
    "cuisine": "Italian",
    "address": "789 Zamalek Street, Cairo",
    "phone": "+20-2-3456-7890",
    "rating": 4.4,
    "price_range": "$$",
    "hours": "11:00-23:00",
    "specialties": [
      "Margherita Pizza",
      "Pasta Carbonara",
      "Tiramisu"
    ],
    "image": "https://images.unsplash.com/photo-1517248135467-4c7edcad34c4?w=800&h=600&fit=crop"
  },
  {
    "id": 4,
    "name": "Sushi Master",
    "cuisine": "Japanese",
    "address": "321 New Cairo, Cairo",
    "phone": "+20-2-4567-8901",
    "rating": 4.7,
    "price_range": "$$$",
    "hours": "12:00-22:00",
    "specialties": [
      "Dragon Roll",
      "Sashimi Platter",
      "Miso Soup"
    ],
    "image": "https://images.unsplash.com/photo-1517248135467-4c7edcad34c4?w=800&h=600&fit=crop"
  },
  {
    "id": 5,
    "name": "Burger House",
    "cuisine": "American",
    "address": "654 Maadi, Cairo",
    "phone": "+20-2-5678-9012",
    "rating": 4.2,
    "price_range": "$",
    "hours": "10:00-24:00",
    "specialties": [
      "Classic Burger",
      "Chicken Wings",
      "Milkshakes"
    ],
    "image": "https://images.unsplash.com/photo-1517248135467-4c7edcad34c4?w=800&h=600&fit=crop"
  },
  {
    "id": 6,
    "name": "Tandoori Nights",
    "cuisine": "Indian",
    "address": "987 Heliopolis, Cairo",
    "phone": "+20-2-6789-0123",
    "rating": 4.5,
    "price_range": "$$",
    "hours": "12:00-23:00",
    "specialties": [
      "Butter Chicken",
      "Naan Bread",
      "Biryani"
    ],
    "image": "https://images.unsplash.com/photo-1517248135467-4c7edcad34c4?w=800&h=600&fit=crop"
  },
  {
    "id": 7,
    "name": "Pho Saigon",
    "cuisine": "Vietnamese",
    "address": "147 6th October City",
    "phone": "+20-2-7890-1234",
    "rating": 4.3,
    "price_range": "$$",
    "hours": "11:00-21:00",
    "specialties": [
      "Pho Bo",
      "Spring Rolls",
      "Banh Mi"
    ],
    "image": "https://images.unsplash.com/photo-1517248135467-4c7edcad34c4?w=800&h=600&fit=crop"
  },
  {
    "id": 8,
    "name": "Greek Islands",
    "cuisine": "Greek",
    "address": "258 Hurghada Marina",
    "phone": "+20-65-8901-2345",
    "rating": 4.6,
    "price_range": "$$$",
    "hours": "12:00-22:00",
    "specialties": [
      "Moussaka",
      "Souvlaki",
      "Baklava"
    ],
    "image": "https://images.unsplash.com/photo-1517248135467-4c7edcad34c4?w=800&h=600&fit=crop"
  },
  {
    "id": 9,
    "name": "Thai Spice",
    "cuisine": "Thai",
    "address": "369 Sharm El Sheikh",
    "phone": "+20-69-9012-3456",
    "rating": 4.4,
    "price_range": "$$",
    "hours": "11:00-22:00",
    "specialties": [
      "Pad Thai",
      "Green Curry",
      "Tom Yum Soup"
    ],
    "image": "https://images.unsplash.com/photo-1517248135467-4c7edcad34c4?w=800&h=600&fit=crop"
  },
  {
    "id": 10,
    "name": "Lebanese Garden",
    "cuisine": "Lebanese",
    "address": "741 Luxor Corniche",
    "phone": "+20-97-0123-4567",
    "rating": 4.7,
    "price_range": "$$$",
    "hours": "12:00-23:00",
    "specialties": [
      "Hummus",
      "Shawarma",
      "Falafel"
    ],
    "image": "https://images.unsplash.com/photo-1517248135467-4c7edcad34c4?w=800&h=600&fit=crop"
  }
]